[{"name":"La Forza","id":"1","deleted":false,"type":"ITALIAN","status":"Open","location":{"address":{"street":"Katolicke porte","number":6,"city":"Novi Sad","postcode":21000},"latitude":124.55500030517578,"longitude":245.63999938964844},"items":[],"logo":null,"menagerId":"ostoja"},{"name":"Menza","id":"2","deleted":false,"type":"ITALIAN","status":"Open","location":{"address":{"street":"Dr Sime Milosevica","number":6,"city":"Novi Sad","postcode":21000},"latitude":124.55500030517578,"longitude":245.63999938964844},"items":[],"logo":null,"menagerId":"ostoja"},{"name":"Mala menza","id":"3","deleted":false,"type":"ITALIAN","status":"Open","location":{"address":{"street":"Dr Sime Milosevica","number":6,"city":"Novi Sad","postcode":21000},"latitude":124.55500030517578,"longitude":245.63999938964844},"items":[],"logo":null,"menagerId":"ostoja"},{"name":"La Forza","id":"1","deleted":false,"type":"ITALIAN","status":"Open","location":{"address":{"street":"Katolicke porte","number":6,"city":"Novi Sad","postcode":21000},"latitude":124.55500030517578,"longitude":245.63999938964844},"items":[],"logo":null,"menagerId":"ostoja"},{"name":"Menza","id":"2","deleted":false,"type":"ITALIAN","status":"Open","location":{"address":{"street":"Dr Sime Milosevica","number":6,"city":"Novi Sad","postcode":21000},"latitude":124.55500030517578,"longitude":245.63999938964844},"items":[],"logo":null,"menagerId":"ostoja"},{"name":"Mala menza","id":"3","deleted":false,"type":"ITALIAN","status":"Open","location":{"address":{"street":"Dr Sime Milosevica","number":6,"city":"Novi Sad","postcode":21000},"latitude":124.55500030517578,"longitude":245.63999938964844},"items":[],"logo":null,"menagerId":"ostoja"},{"name":"Novi","id":"","deleted":false,"type":"ITALIAN","status":"Open","location":{"address":{"street":"Dr Sime Milosevica","number":6,"city":"Novi Sad","postcode":2100},"latitude":124.55,"longitude":245.64},"items":[],"logo":"","menagerId":"andjela"}]